[  
   {  
      "locality_code":"S0004",
      "adm_region":"Onna",
      "locality_name":"OIST Open S0004",
      "site_id":"OISTOP",
      "latitude":26.4631,
      "longitude":127.82857,
      "elevation":67,
      "site_number":"Site 01",
      "collaborator":null,
      "description":null,
      "Japanese_name":"",
      "img_url":[]
   },
   {  
      "locality_code":"S0005",
      "adm_region":"Onna",
      "locality_name":"OIST Open S0005",
      "site_id":"OISTOP",
      "latitude":26.46294,
      "longitude":127.82893,
      "elevation":66,
      "site_number":"Site 01",
      "collaborator":null,
      "description":null
   },
   {  
      "locality_code":"S0006",
      "adm_region":"Onna",
      "locality_name":"OIST Open S0006",
      "site_id":"OISTOP",
      "latitude":26.46351,
      "longitude":127.82809,
      "elevation":62,
      "site_number":"Site 01",
      "collaborator":null,
      "description":null
   },
   {  
      "locality_code":"S0007",
      "adm_region":"Onna",
      "locality_name":"OIST Forest S0007",
      "site_id":"OISTFR",
      "latitude":26.46517,
      "longitude":127.8422,
      "elevation":120,
      "site_number":"Site 02",
      "collaborator":null,
      "description":null
   },
   {  
      "locality_code":"S0008",
      "adm_region":"Onna",
      "locality_name":"OIST Forest S0008",
      "site_id":"OISTFR",
      "latitude":26.46509,
      "longitude":127.8419,
      "elevation":107,
      "site_number":"Site 02",
      "collaborator":null,
      "description":null
   },
   {  
      "locality_code":"S0009",
      "adm_region":"Onna",
      "locality_name":"OIST Forest S0009",
      "site_id":"OISTFR",
      "latitude":26.4648,
      "longitude":127.84209,
      "elevation":113,
      "site_number":"Site 02",
      "collaborator":null,
      "description":null
   },
   {  
      "locality_code":"S0010",
      "adm_region":"Ogimi",
      "locality_name":"Kitamura 04 Forest S0010",
      "site_id":"KITAMURA04FR",
      "latitude":26.7056,
      "longitude":128.17001,
      "elevation":16,
      "site_number":null,
      "collaborator":null,
      "description":null
   },
   {  
      "locality_code":"S0011",
      "adm_region":"Ogimi",
      "locality_name":"Kitamura 03 Forest S0011 ",
      "site_id":"KITAMURA03FR",
      "latitude":26.69066,
      "longitude":128.17839,
      "elevation":150,
      "site_number":null,
      "collaborator":null,
      "description":null
   },
   {  
      "locality_code":"S0012",
      "adm_region":"Okinawa",
      "locality_name":"Takiyanbaru Forest S0012",
      "site_id":"TAKEYANBARUFR",
      "latitude":26.41375,
      "longitude":127.78918,
      "elevation":137,
      "site_number":"Site 03",
      "collaborator":null,
      "description":null
   },
   {  
      "locality_code":"S0013",
      "adm_region":"Okinawa",
      "locality_name":"Takiyanbaru Forest S0013",
      "site_id":"TAKEYANBARUFR",
      "latitude":26.41363,
      "longitude":127.78934,
      "elevation":128,
      "site_number":"Site 03",
      "collaborator":null,
      "description":null
   },
   {  
      "locality_code":"S0014",
      "adm_region":"Okinawa",
      "locality_name":"Takiyanbaru Forest S0014",
      "site_id":"TAKEYANBARUFR",
      "latitude":26.4131,
      "longitude":127.79021,
      "elevation":122,
      "site_number":"Site 03",
      "collaborator":null,
      "description":null
   },
   {  
      "locality_code":"S0015",
      "adm_region":"Ogimi",
      "locality_name":"Hentona Open S0015",
      "site_id":"HENTONAOP",
      "latitude":26.70314,
      "longitude":128.13156,
      "elevation":21,
      "site_number":"Site 04",
      "collaborator":null,
      "description":null
   },
   {  
      "locality_code":"S0016",
      "adm_region":"Ogimi",
      "locality_name":"Hentona Open S0016",
      "site_id":"HENTONAOP",
      "latitude":26.70286,
      "longitude":128.13,
      "elevation":4,
      "site_number":"Site 04",
      "collaborator":null,
      "description":null
   },
   {  
      "locality_code":"S0017",
      "adm_region":"Ogimi",
      "locality_name":"Hentona Open S0017",
      "site_id":"HENTONAOP",
      "latitude":26.70251,
      "longitude":128.13113,
      "elevation":9,
      "site_number":"Site 04",
      "collaborator":null,
      "description":null
   },
   {  
      "locality_code":"S0018",
      "adm_region":"Nakagusuku",
      "locality_name":"Nakagusuku Forest S0018",
      "site_id":"NAKAGUSUKUFR",
      "latitude":26.28498,
      "longitude":127.79572,
      "elevation":127,
      "site_number":"Site 05",
      "collaborator":null,
      "description":null
   },
   {  
      "locality_code":"S0019",
      "adm_region":"Nakagusuku",
      "locality_name":"Nakagusuku Forest S0019",
      "site_id":"NAKAGUSUKUFR",
      "latitude":26.28571,
      "longitude":127.79523,
      "elevation":104,
      "site_number":"Site 05",
      "collaborator":null,
      "description":null
   },
   {  
      "locality_code":"S0020",
      "adm_region":"Nakagusuku",
      "locality_name":"Nakagusuku Forest S0020",
      "site_id":"NAKAGUSUKUFR",
      "latitude":26.28557,
      "longitude":127.79491,
      "elevation":111,
      "site_number":"Site 05",
      "collaborator":null,
      "description":null
   },
   {  
      "locality_code":"S0021",
      "adm_region":"Nago",
      "locality_name":"Genka Open S0021",
      "site_id":"GENKAOP",
      "latitude":26.63912,
      "longitude":128.06187,
      "elevation":5,
      "site_number":"Site 06",
      "collaborator":null,
      "description":null
   },
   {  
      "locality_code":"S0022",
      "adm_region":"Nago",
      "locality_name":"Genka Open S0022",
      "site_id":"GENKAOP",
      "latitude":26.6396,
      "longitude":128.06212,
      "elevation":7,
      "site_number":"Site 06",
      "collaborator":null,
      "description":null
   },
   {  
      "locality_code":"S0023",
      "adm_region":"Nago",
      "locality_name":"Genka Open S0023",
      "site_id":"GENKAOP",
      "latitude":26.63974,
      "longitude":128.06258,
      "elevation":4,
      "site_number":"Site 06",
      "collaborator":null,
      "description":null
   },
   {  
      "locality_code":"S0024",
      "adm_region":"Kunigami",
      "locality_name":"Yona Field Forest S0024",
      "site_id":"YONAFR",
      "latitude":26.73974,
      "longitude":128.23598,
      "elevation":294,
      "site_number":"Site 07",
      "collaborator":null,
      "description":null
   },
   {  
      "locality_code":"S0025",
      "adm_region":"Kunigami",
      "locality_name":"Yona Field Forest S0025",
      "site_id":"YONAFR",
      "latitude":26.73972,
      "longitude":128.2363,
      "elevation":303,
      "site_number":"Site 07",
      "collaborator":null,
      "description":null
   },
   {  
      "locality_code":"S0026",
      "adm_region":"Kunigami",
      "locality_name":"Yona Forest S0026",
      "site_id":"YONAFR",
      "latitude":26.73894,
      "longitude":128.2372,
      "elevation":313,
      "site_number":"Site 07",
      "collaborator":null,
      "description":null
   },
   {  
      "locality_code":"S0027",
      "adm_region":"Ogimi",
      "locality_name":"Kitamura 04 Forest S0027",
      "site_id":"KITAMURA04FR",
      "latitude":26.70569,
      "longitude":128.17,
      "elevation":16,
      "site_number":null,
      "collaborator":null,
      "description":null
   },
   {  
      "locality_code":"S0028",
      "adm_region":"Ogimi",
      "locality_name":"Kitamura 03 Forest S0028",
      "site_id":"KITAMURA03FR",
      "latitude":26.69016,
      "longitude":128.17805,
      "elevation":147,
      "site_number":null,
      "collaborator":null,
      "description":null
   },
   {  
      "locality_code":"S0029",
      "adm_region":"Okinawa",
      "locality_name":"Kurashiki Open S0029",
      "site_id":"KURASHIKIOP",
      "latitude":26.39299,
      "longitude":127.80787,
      "elevation":77,
      "site_number":"Site 08",
      "collaborator":null,
      "description":null
   },
   {  
      "locality_code":"S0030",
      "adm_region":"Uruma",
      "locality_name":"Kurashiki Open S0030",
      "site_id":"KURASHIKIOP",
      "latitude":26.39329,
      "longitude":127.8074,
      "elevation":67,
      "site_number":"Site 08",
      "collaborator":null,
      "description":null
   },
   {  
      "locality_code":"S0031",
      "adm_region":"Uruma",
      "locality_name":"Kurashiki Open S0031",
      "site_id":"KURASHIKIOP",
      "latitude":26.39382,
      "longitude":127.80736,
      "elevation":72,
      "site_number":"Site 08",
      "collaborator":null,
      "description":null
   },
   {  
      "locality_code":"S0032",
      "adm_region":"Nishihara",
      "locality_name":"Senbaru Field Open S0032",
      "site_id":"SENBARUOP",
      "latitude":26.24818,
      "longitude":127.75763,
      "elevation":104,
      "site_number":"Site 09",
      "collaborator":null,
      "description":null
   },
   {  
      "locality_code":"S0033",
      "adm_region":"Nishihara",
      "locality_name":"Senbaru Field Open S0033",
      "site_id":"SENBARUOP",
      "latitude":26.24795,
      "longitude":127.75863,
      "elevation":95,
      "site_number":"Site 09",
      "collaborator":null,
      "description":null
   },
   {  
      "locality_code":"S0034",
      "adm_region":"Nishihara",
      "locality_name":"Senbaru Field Open S0034",
      "site_id":"SENBARUOP",
      "latitude":26.24921,
      "longitude":127.75906,
      "elevation":117,
      "site_number":"Site 09",
      "collaborator":null,
      "description":null
   },
   {  
      "locality_code":"S0035",
      "adm_region":"Nishihara",
      "locality_name":"Uehara Forest S0035",
      "site_id":"UEHARAFR",
      "latitude":26.24528,
      "longitude":127.75887,
      "elevation":120,
      "site_number":"Site 10",
      "collaborator":null,
      "description":null
   },
   {  
      "locality_code":"S0036",
      "adm_region":"Nishihara",
      "locality_name":"Uehara Forest S0036",
      "site_id":"UEHARAFR",
      "latitude":26.24548,
      "longitude":127.75863,
      "elevation":113,
      "site_number":"Site 10",
      "collaborator":null,
      "description":null
   },
   {  
      "locality_code":"S0037",
      "adm_region":"Nishihara",
      "locality_name":"Uehara Forest S0037",
      "site_id":"UEHARAFR",
      "latitude":26.24407,
      "longitude":127.75877,
      "elevation":129,
      "site_number":"Site 10",
      "collaborator":null,
      "description":null
   },
   {  
      "locality_code":"S0038",
      "adm_region":"Chatan",
      "locality_name":"Chatan Ireibaru Open S0038",
      "site_id":"CHATANOP",
      "latitude":26.32468,
      "longitude":127.75918,
      "elevation":14,
      "site_number":"Site 11",
      "collaborator":null,
      "description":null
   },
   {  
      "locality_code":"S0039",
      "adm_region":"Chatan",
      "locality_name":"Chatan Ireibaru Open S0039",
      "site_id":"CHATANOP",
      "latitude":26.32495,
      "longitude":127.75885,
      "elevation":9,
      "site_number":"Site 11",
      "collaborator":null,
      "description":null
   },
   {  
      "locality_code":"S0040",
      "adm_region":"Chatan",
      "locality_name":"Chatan Ireibaru Open S0040",
      "site_id":"CHATANOP",
      "latitude":26.32503,
      "longitude":127.75868,
      "elevation":12,
      "site_number":"Site 11",
      "collaborator":null,
      "description":null
   },
   {  
      "locality_code":"S0041",
      "adm_region":"Ginowan",
      "locality_name":"Oyama Open S0041",
      "site_id":"OYAMAOP",
      "latitude":26.28129,
      "longitude":127.74419,
      "elevation":2,
      "site_number":"Site 12",
      "collaborator":null,
      "description":null
   },
   {  
      "locality_code":"S0042",
      "adm_region":"Ginowan",
      "locality_name":"Oyama Open S0042",
      "site_id":"OYAMAOP",
      "latitude":26.28088,
      "longitude":127.74456,
      "elevation":5,
      "site_number":"Site 12",
      "collaborator":null,
      "description":null
   },
   {  
      "locality_code":"S0043",
      "adm_region":"Ginowan",
      "locality_name":"Oyama Open S0043",
      "site_id":"OYAMAOP",
      "latitude":26.28009,
      "longitude":127.74404,
      "elevation":4,
      "site_number":"Site 12",
      "collaborator":null,
      "description":null
   },
   {  
      "locality_code":"S0044",
      "adm_region":"Uruma",
      "locality_name":"Yacho-no-mori  Open S0044",
      "site_id":"YACHOOP",
      "latitude":26.37612,
      "longitude":127.87032,
      "elevation":34,
      "site_number":"Site 13",
      "collaborator":null,
      "description":null
   },
   {  
      "locality_code":"S0045",
      "adm_region":"Uruma",
      "locality_name":"Yacho-no-mori  Open S0045",
      "site_id":"YACHOOP",
      "latitude":26.37581,
      "longitude":127.87071,
      "elevation":30,
      "site_number":"Site 13",
      "collaborator":null,
      "description":null
   },
   {  
      "locality_code":"S0046",
      "adm_region":"Uruma",
      "locality_name":"Yacho-no-mori  Open S0046",
      "site_id":"YACHOOP",
      "latitude":26.37503,
      "longitude":127.87093,
      "elevation":18,
      "site_number":"Site 13",
      "collaborator":null,
      "description":null
   },
   {  
      "locality_code":"S0047",
      "adm_region":"Kunigami",
      "locality_name":"Oku Forest S0047",
      "site_id":"OKUFR",
      "latitude":26.83635,
      "longitude":128.27013,
      "elevation":222,
      "site_number":"Site 14",
      "collaborator":null,
      "description":null
   },
   {  
      "locality_code":"S0048",
      "adm_region":"Kunigami",
      "locality_name":"Oku Forest S0048",
      "site_id":"OKUFR",
      "latitude":26.8363,
      "longitude":128.27051,
      "elevation":228,
      "site_number":"Site 14",
      "collaborator":null,
      "description":null
   },
   {  
      "locality_code":"S0049",
      "adm_region":"Kunigami",
      "locality_name":"Oku Forest S0049",
      "site_id":"OKUFR",
      "latitude":26.83604,
      "longitude":128.27191,
      "elevation":230,
      "site_number":"Site 14",
      "collaborator":null,
      "description":null
   },
   {  
      "locality_code":"S0050",
      "adm_region":"Okinawa",
      "locality_name":"Southeast Botanical Garden Open S0050",
      "site_id":"TOUNANOP",
      "latitude":26.37771,
      "longitude":127.80656,
      "elevation":48,
      "site_number":"Site 15",
      "collaborator":null,
      "description":null
   },
   {  
      "locality_code":"S0051",
      "adm_region":"Okinawa",
      "locality_name":"Southeast Botanical Garden Open S0051",
      "site_id":"TOUNANOP",
      "latitude":26.37793,
      "longitude":127.80549,
      "elevation":44,
      "site_number":"Site 15",
      "collaborator":null,
      "description":null
   },
   {  
      "locality_code":"S0052",
      "adm_region":"Okinawa",
      "locality_name":"Southeast Botanical Garden Open S0052",
      "site_id":"TOUNANOP",
      "latitude":26.37832,
      "longitude":127.80571,
      "elevation":43,
      "site_number":"Site 15",
      "collaborator":null,
      "description":null
   },
   {  
      "locality_code":"S0053",
      "adm_region":"Kunigami",
      "locality_name":"Yambaru Manabi-no-mori Forest S0053",
      "site_id":"MANABIFR",
      "latitude":26.72256,
      "longitude":128.26027,
      "elevation":157,
      "site_number":"Site 16",
      "collaborator":null,
      "description":null
   },
   {  
      "locality_code":"S0054",
      "adm_region":"Kunigami",
      "locality_name":"Yambaru Manabi-no-mori Forest S0054",
      "site_id":"MANABIFR",
      "latitude":26.7226,
      "longitude":128.2597,
      "elevation":157,
      "site_number":"Site 16",
      "collaborator":null,
      "description":null
   },
   {  
      "locality_code":"S0055",
      "adm_region":"Kunigami",
      "locality_name":"Yambaru Manabi-no-mori Forest S0055",
      "site_id":"MANABIFR",
      "latitude":26.72245,
      "longitude":128.25934,
      "elevation":154,
      "site_number":"Site 16",
      "collaborator":null,
      "description":null
   },
   {  
      "locality_code":"S0056",
      "adm_region":"Naha",
      "locality_name":"Sueyoshi Park Forest S0056",
      "site_id":"SUEYOSHIFR",
      "latitude":26.22817,
      "longitude":127.71642,
      "elevation":70,
      "site_number":"Site 17",
      "collaborator":null,
      "description":null
   },
   {  
      "locality_code":"S0057",
      "adm_region":"Naha",
      "locality_name":"Sueyoshi Park Forest S0057",
      "site_id":"SUEYOSHIFR",
      "latitude":26.22831,
      "longitude":127.716,
      "elevation":65,
      "site_number":"Site 17",
      "collaborator":null,
      "description":null
   },
   {  
      "locality_code":"S0058",
      "adm_region":"Naha",
      "locality_name":"Sueyoshi Park Forest S0058",
      "site_id":"SUEYOSHIFR",
      "latitude":26.22917,
      "longitude":127.71609,
      "elevation":98,
      "site_number":"Site 17",
      "collaborator":null,
      "description":null
   },
   {  
      "locality_code":"S0059",
      "adm_region":"Itoman",
      "locality_name":"Heiwasozo-no-mori Open S0059",
      "site_id":"HEIWAOP",
      "latitude":26.08335,
      "longitude":127.68786,
      "elevation":23,
      "site_number":"Site 18",
      "collaborator":null,
      "description":null
   },
   {  
      "locality_code":"S0060",
      "adm_region":"Itoman",
      "locality_name":"Heiwasozo-no-mori Open S0060",
      "site_id":"HEIWAOP",
      "latitude":26.08378,
      "longitude":127.68875,
      "elevation":22,
      "site_number":"Site 18",
      "collaborator":null,
      "description":null
   },
   {  
      "locality_code":"S0061",
      "adm_region":"Itoman",
      "locality_name":"Heiwasozo-no-mori Open S0061",
      "site_id":"HEIWAOP",
      "latitude":26.08436,
      "longitude":127.68933,
      "elevation":25,
      "site_number":"Site 18",
      "collaborator":null,
      "description":null
   },
   {  
      "locality_code":"S0062",
      "adm_region":"Nanjo",
      "locality_name":"Tamagusuku Youth and Children's Center Forest S0062",
      "site_id":"TAMAGUSUKUFR",
      "latitude":26.14247,
      "longitude":127.78266,
      "elevation":132,
      "site_number":"Site 19",
      "collaborator":null,
      "description":null
   },
   {  
      "locality_code":"S0063",
      "adm_region":"Nanjo",
      "locality_name":"Tamagusuku Youth and Children's Center Forest S0063",
      "site_id":"TAMAGUSUKUFR",
      "latitude":26.14217,
      "longitude":127.78458,
      "elevation":100,
      "site_number":"Site 19",
      "collaborator":null,
      "description":null
   },
   {  
      "locality_code":"S0064",
      "adm_region":"Nanjo",
      "locality_name":"Tamagusuku Youth and Children's Center Forest S0064",
      "site_id":"TAMAGUSUKUFR",
      "latitude":26.14243,
      "longitude":127.78451,
      "elevation":117,
      "site_number":"Site 19",
      "collaborator":null,
      "description":null
   },
   {  
      "locality_code":"S0065",
      "adm_region":"Nanjo",
      "locality_name":"Sefa Utaki Forest S0065",
      "site_id":"SEFAUTAKIFR",
      "latitude":26.17333,
      "longitude":127.82573,
      "elevation":107,
      "site_number":"Site 20",
      "collaborator":null,
      "description":null
   },
   {  
      "locality_code":"S0066",
      "adm_region":"Nanjo",
      "locality_name":"Sefa Utaki Forest S0066",
      "site_id":"SEFAUTAKIFR",
      "latitude":26.17351,
      "longitude":127.82587,
      "elevation":109,
      "site_number":"Site 20",
      "collaborator":null,
      "description":null
   },
   {  
      "locality_code":"S0067",
      "adm_region":"Nanjo",
      "locality_name":"Sefa Utaki ForestS0067",
      "site_id":"SEFAUTAKIFR",
      "latitude":26.17418,
      "longitude":127.82538,
      "elevation":117,
      "site_number":"Site 20",
      "collaborator":null,
      "description":null
   },
   {  
      "locality_code":"S0068",
      "adm_region":"Nago",
      "locality_name":"Nago Central Park Forest S0068",
      "site_id":"NAGOFR",
      "latitude":26.59008,
      "longitude":127.99402,
      "elevation":86,
      "site_number":"Site 21",
      "collaborator":null,
      "description":null
   },
   {  
      "locality_code":"S0069",
      "adm_region":"Nago",
      "locality_name":"Nago Central Park Forest S0069",
      "site_id":"NAGOFR",
      "latitude":26.58956,
      "longitude":127.99418,
      "elevation":99,
      "site_number":"Site 21",
      "collaborator":null,
      "description":null
   },
   {  
      "locality_code":"S0070",
      "adm_region":"Nago",
      "locality_name":"Nago Central Park Forest S0070",
      "site_id":"NAGOFR",
      "latitude":26.58945,
      "longitude":127.99315,
      "elevation":74,
      "site_number":"Site 21",
      "collaborator":null,
      "description":null
   },
   {  
      "locality_code":"S0071",
      "adm_region":"Onna",
      "locality_name":"Kemin-no-mori Forest S0071",
      "site_id":"KEMINFR",
      "latitude":26.50553,
      "longitude":127.91046,
      "elevation":98,
      "site_number":"Site 22",
      "collaborator":null,
      "description":null
   },
   {  
      "locality_code":"S0072",
      "adm_region":"Onna",
      "locality_name":"Kemin-no-mori Forest S0072",
      "site_id":"KEMINFR",
      "latitude":26.50624,
      "longitude":127.9103,
      "elevation":111,
      "site_number":"Site 22",
      "collaborator":null,
      "description":null
   },
   {  
      "locality_code":"S0073",
      "adm_region":"Onna",
      "locality_name":"Kemin-no-mori Forest S0073",
      "site_id":"KEMINFR",
      "latitude":26.50664,
      "longitude":127.91042,
      "elevation":113,
      "site_number":"Site 22",
      "collaborator":null,
      "description":null
   },
   {  
      "locality_code":"S0074",
      "adm_region":"Nago",
      "locality_name":"Katsuu Dake Forest S0074",
      "site_id":"KATSUUDAKEFR",
      "latitude":26.63249,
      "longitude":127.93468,
      "elevation":385,
      "site_number":"Site 23",
      "collaborator":null,
      "description":null
   },
   {  
      "locality_code":"S0075",
      "adm_region":"Nago",
      "locality_name":"Katsuu Dake Forest S0075",
      "site_id":"KATSUUDAKEFR",
      "latitude":26.63279,
      "longitude":127.93497,
      "elevation":377,
      "site_number":"Site 23",
      "collaborator":null,
      "description":null
   },
   {  
      "locality_code":"S0076",
      "adm_region":"Nago",
      "locality_name":"Katsuu Dake Forest S0076",
      "site_id":"KATSUUDAKEFR",
      "latitude":26.63305,
      "longitude":127.93561,
      "elevation":382,
      "site_number":"Site 23",
      "collaborator":null,
      "description":null
   },
   {  
      "locality_code":"S0077",
      "adm_region":"Higashi",
      "locality_name":"Gesashi Open S0077",
      "site_id":"GESASHIOP",
      "latitude":26.60461,
      "longitude":128.14345,
      "elevation":6,
      "site_number":"Site 24",
      "collaborator":null,
      "description":null
   },
   {  
      "locality_code":"S0078",
      "adm_region":"Higashi",
      "locality_name":"Gesashi Open S0078",
      "site_id":"GESASHIOP",
      "latitude":26.60447,
      "longitude":128.14258,
      "elevation":4,
      "site_number":"Site 24",
      "collaborator":null,
      "description":null
   },
   {  
      "locality_code":"S0079",
      "adm_region":"Higashi",
      "locality_name":"Gesashi Open S0079",
      "site_id":"GESASHIOP",
      "latitude":26.6037,
      "longitude":128.14246,
      "elevation":4,
      "site_number":"Site 24",
      "collaborator":null,
      "description":null
   },
   {  
      "locality_code":"T0001",
      "adm_region":"Onna",
      "locality_name":"OIST Open T0001",
      "site_id":"OISTOP",
      "latitude":26.45944,
      "longitude":127.83583,
      "elevation":135,
      "site_number":"Site 01",
      "collaborator":null,
      "description":null
   }
]